[
  {
    "Source": "Lisle-3030",
    "Target": "Lisle-2300",
    "Name": "Lisle-3030",
    "Desc": "Lisle 3030 to 2300",
    "LineType": "Dash",
    "LineWidthpx": "3",
    "LineColor": "Green",
    "LineAttribute": "0",
    "LineStyle": "0",
    "LineEndIcon": "myicon.svg",
    "WaypointLatLngArray": "41.809610 -88.110977, 41.808863  -88.110845, 41.808745 -88.106650, 41.808090 -88.098786,  41.810470 -88.098253",
    "Update": "0"
  },
  {
    "Source": "Lisle-3030",
    "Target": "LovesPark, IL - DR",
    "Name": "Lisle-3030",
    "Desc": "Lisle 3030 to LovesPark",
    "LineType": "Solid",
    "LineWidthpx": "2",
    "LineColor": "Black",
    "LineAttribute": "0",
    "LineStyle": "0",
    "LineEndIcon": "myicon.svg",
    "WaypointLatLngArray": "42.3191876 -88.9903466",
    "Update": "0"
  },
  {
    "Source": "Lisle-3030",
    "Target": "Lisle-1011 Midwest backup",
    "Name": "Lisle-3030",
    "Desc": "Lisle 3030 to 1011",
    "LineType": "Dash",
    "LineWidthpx": "3",
    "LineColor": "Gray",
    "LineAttribute": "0",
    "LineStyle": "0",
    "LineEndIcon": "myicon.svg",
    "WaypointLatLngArray": "41.809610 -88.110977, 41.808863  -88.110845, 41.808745 -88.106650, 41.808090 -88.098786,  41.8074315 -88.0752428",
    "Update": "0"
  },
  {
    "Source": "IOWA",
    "Target": "Lisle-1011 Midwest backup",
    "Name": "IOWA",
    "Desc": "IOWA Site to 1011",
    "LineType": "Dash",
    "LineWidthpx": "3",
    "LineColor": "Blue",
    "LineAttribute": "0",
    "LineStyle": "0",
    "LineEndIcon": "myicon.svg",
    "WaypointLatLngArray": "41.281335 -95.786084,41.496403 -95.584174,41.499189 -95.323804,41.666832 -93.500347,41.686033 -91.623322,41.593275 -90.362548,41.762241 -89.841207,41.824729 -89.302068,41.904625-89.0282989,41.900548 -88.649474,41.875851 -88.614087,41.796344 -88.396238,41.804037 -88.203495,41.806278 -88.138856,41.806278 -88.083971,41.8074315 -88.0752428",
    "Update": "0"
  },
  {
    "Source": "Springfield, IL",
    "Target": "Lisle-1011 Midwest backup",
    "Name": "Springfield, IL",
    "Desc": "Springfield, IL State Site to 1011",
    "LineType": "Dash",
    "LineWidthpx": "2",
    "LineColor": "Red",
    "LineAttribute": "0",
    "LineStyle": "0",
    "LineEndIcon": "myicon.svg",
    "WaypointLatLngArray": "41.8074315 -88.0752428",
    "Update": "0"
  },
  {
    "Source": "Blanford, London",
    "Target": "Blanford, London",
    "Name": "Ebury, London",
    "Desc": "Ebury, London Site",
    "LineType": "Dash",
    "LineWidthpx": "2",
    "LineColor": "Red",
    "LineAttribute": "0",
    "LineStyle": "0",
    "LineEndIcon": "myicon.svg",
    "WaypointLatLngArray": "51.508431 -0.204722, 51.508431 -0.204722, 51.508431 -0.204722, 51.508431 -0.204722",
    "Update": "1"
  },
  {
    "Source": "Glasgow",
    "Target": "Atomic-Brussels",
    "Name": "Glasgow",
    "Desc": "Glasgow to Brussels",
    "LineType": "Solid",
    "LineWidthpx": "3",
    "LineColor": "Blue",
    "LineAttribute": "2",
    "LineStyle": "1",
    "LineEndIcon": "myicon.svg",
    "WaypointLatLngArray": "50.895692 4.3376882",
    "Update": "0"
  },
  {
    "Source": "New Delhi",
    "Target": "New Delhi",
    "Name": "Poland",
    "Desc": "Poland Site",
    "LineType": "Solid",
    "LineWidthpx": "3",
    "LineColor": "Blue",
    "LineAttribute": "2",
    "LineStyle": "1",
    "LineEndIcon": "myicon.svg",
    "WaypointLatLngArray": "50.458433 30.476319, 28.6362567 77.1046916, 28.6362567 77.1046916, 28.6362567 77.1046916",
    "Update": "1"
  },
  {
    "Source": "Anchorage",
    "Target": "Tokyo",
    "Name": "Anchorage",
    "Desc": "Anchorage to Tokyo",
    "LineType": "Solid",
    "LineWidthpx": "3",
    "LineColor": "Orange",
    "LineAttribute": "2",
    "LineStyle": "1",
    "LineEndIcon": "myicon.svg",
    "WaypointLatLngArray": "35.6998313 139.7388709, 35.6998313 139.7388709, 35.6998313 139.7388709, 35.6998313 139.7388709",
    "Update": "1"
  },
  {
    "Source": "Tokyo",
    "Target": "Sydney",
    "Name": "Tokyo",
    "Desc": "Tokyo to Sydney",
    "LineType": "Solid",
    "LineWidthpx": "2",
    "LineColor": "Orange",
    "LineAttribute": "2",
    "LineStyle": "1",
    "LineEndIcon": "myicon.svg",
    "WaypointLatLngArray": "-33.8883996 151.1841899, -33.8883996 151.1841899, -33.8883996 151.1841899, -33.8883996 151.1841899",
    "Update": "1"
  },
  {
    "Source": "Sydney",
    "Target": "New Delhi",
    "Name": "Sydney",
    "Desc": "Sydney to Delhi",
    "LineType": "Solid",
    "LineWidthpx": "3",
    "LineColor": "Orange",
    "LineAttribute": "2",
    "LineStyle": "1",
    "LineEndIcon": "myicon.svg",
    "WaypointLatLngArray": "28.6362567 77.1046916, 38.568474585749186 73.9406291, 57.718021002671655 95.3859416, 39.434297623928146 102.7687541",
    "Update": "1"
  },
  {
    "Source": "New Delhi",
    "Target": "Anchorage",
    "Name": "New Delhi",
    "Desc": "Delhi to Anchorage",
    "LineType": "Solid",
    "LineWidthpx": "2",
    "LineColor": "Orange",
    "LineAttribute": "2",
    "LineStyle": "1",
    "LineEndIcon": "myicon.svg",
    "WaypointLatLngArray": "61.1910447 -149.8221347, 61.1910447 -149.8221347, 61.1910447 -149.8221347, 61.1910447 -149.8221347",
    "Update": "1"
  }
]