[
  {
    "Name": "Lisle-3030",
    "Desc": "Lisle 3030 to 2300",
    "LineType": "Dash",
    "LineWidthpx": "3",
    "LineColor": "Green",
    "LineAttribute": "0",
    "LineStyle": "0",
    "LineEndIcon": "myicon.svg",
    "WaypointLatLngArray": "41.80961 -88.110977, 41.808863 -88.110845, 41.808745 -88.10665, 41.80809 -88.098786, 41.8074315 -88.0752428",
    "Update": "1"
  },
  {
    "Name": "IOWA",
    "Desc": "IOWA Site to 1011",
    "LineType": "Dash",
    "LineWidthpx": "3",
    "LineColor": "Blue",
    "LineAttribute": "0",
    "LineStyle": "0",
    "LineEndIcon": "myicon.svg",
    "WaypointLatLngArray": "41.281335 -95.786084, 41.496403 -95.584174, 41.499189 -95.323804, 41.666832 -93.500347, 41.686033 -91.623322, 41.593275 -90.362548, 41.762241 -89.841207, 41.824729 -89.302068, 41.900548 -88.649474, 41.875851 -88.614087, 41.796344 -88.396238, 41.804037 -88.203495, 41.806278 -88.138856, 41.806278 -88.083971, 41.8074315 -88.0752428",
    "Update": "1"
  },
  {
    "Name": "Springfield, IL",
    "Desc": "Springfield, IL State Site to 1011",
    "LineType": "Dash",
    "LineWidthpx": "2",
    "LineColor": "Red",
    "LineAttribute": "0",
    "LineStyle": "0",
    "LineEndIcon": "myicon.svg",
    "WaypointLatLngArray": "41.8074315 -88.0752428",
    "Update": "1"
  },
  {
    "Name": "Ebury, London",
    "Desc": "Ebury, London Site",
    "LineType": "Dash",
    "LineWidthpx": "2",
    "LineColor": "Red",
    "LineAttribute": "0",
    "LineStyle": "0",
    "LineEndIcon": "myicon.svg",
    "WaypointLatLngArray": "51.508431 -0.204722",
    "Update": "1"
  },
  {
    "Name": "Glasgow",
    "Desc": "Glasgow to Brussels",
    "LineType": "Solid",
    "LineWidthpx": "3",
    "LineColor": "Blue",
    "LineAttribute": "2",
    "LineStyle": "1",
    "LineEndIcon": "myicon.svg",
    "WaypointLatLngArray": "50.895692 4.3376882",
    "Update": "1"
  },
  {
    "Name": "Anchorage",
    "Desc": "Anchorage to Tokyo",
    "LineType": "Solid",
    "LineWidthpx": "3",
    "LineColor": "Orange",
    "LineAttribute": "2",
    "LineStyle": "1",
    "LineEndIcon": "myicon.svg",
    "WaypointLatLngArray": "35.6998313 139.7388709",
    "Update": "1"
  },
  {
    "Name": "Tokyo",
    "Desc": "Tokyo to Sydney",
    "LineType": "Solid",
    "LineWidthpx": "2",
    "LineColor": "Orange",
    "LineAttribute": "2",
    "LineStyle": "1",
    "LineEndIcon": "myicon.svg",
    "WaypointLatLngArray": "-33.8883996 151.1841899",
    "Update": "1"
  },
  {
    "Name": "Sydney",
    "Desc": "Sydney to Delhi",
    "LineType": "Solid",
    "LineWidthpx": "3",
    "LineColor": "Orange",
    "LineAttribute": "2",
    "LineStyle": "1",
    "LineEndIcon": "myicon.svg",
    "WaypointLatLngArray": "28.6362567 77.1046916",
    "Update": "1"
  },
  {
    "Name": "New Delhi",
    "Desc": "Delhi to Anchorage",
    "LineType": "Solid",
    "LineWidthpx": "2",
    "LineColor": "Orange",
    "LineAttribute": "2",
    "LineStyle": "1",
    "LineEndIcon": "myicon.svg",
    "WaypointLatLngArray": "55.97075159411062 129.12801469403144, 61.1910447 -149.8221347",
    "Update": "1"
  }
]